[{"id":3682,"lang":"ja","name":"和興冰果部","summary":"","introduction":"","open_time":"","district":"後壁区","address":"731 台南市後壁区菁寮里46号","tel":"+886-6-6621877","fax":"","lat":23.37862,"long":120.33564,"services":[],"category":["飲料冰品"],"consume":["美食"],"update_time":"2023-03-29 16:19:22"},{"id":3684,"lang":"ja","name":"藍記東山鴨頭","summary":"藍記東山鴨頭という店は、加える食材及び調理方法と煮込むことが、すべて、社長の独特な方式によって、歯ごたえがある食感を作り出させており、お味の独特なスタイルをもっています。籃記東山鴨頭は毎日に引き続き、伝統の古い製作方法に従って作製して、絶対にいい加減に作り上げないことであって、だから歯ごたえの食感を保つことが出来ており、また、お味の独特なスタイルを持ちしています。\r\n","introduction":"藍記東山鴨頭という店は、加える食材及び調理方法と煮込むことが、すべて、社長の独特な方式によって、歯ごたえがある食感を作り出させており、お味の独特なスタイルをもっています。籃記東山鴨頭は毎日に引き続き、伝統の古い製作方法に従って作製して、絶対にいい加減に作り上げないことであって、だから歯ごたえの食感を保つことが出来ており、また、お味の独特なスタイルを持ちしています。","open_time":"","district":"東山区","address":"733 台南市東山区中興路11号","tel":"+886-6-6802856","fax":"","lat":23.32416,"long":120.40322,"services":[],"category":["中式美食","伴手好禮"],"consume":["美食"],"update_time":"2018-12-13 15:41:57"},{"id":3687,"lang":"ja","name":"度小月担々麺","summary":"担仔面、ビーフン、煮玉子、腸詰、肉そぼろ","introduction":"担仔面、ビーフン、煮玉子、腸詰、肉そぼろ","open_time":"","district":"中西区","address":"700 台南市中西区中正路16号","tel":"+886-6-2231744","fax":"","lat":22.99229,"long":120.20366,"services":[],"category":["麵食醬料","中式美食"],"consume":["美食"],"update_time":"2022-12-05 15:46:59"},{"id":3691,"lang":"ja","name":"再発号","summary":"特性八宝粽、八宝肉粽、肉粽、魚スープ\r\n","introduction":"特性八宝粽、八宝肉粽、肉粽、魚スープ 。","open_time":"","district":"中西区","address":"700 台南市中西区民權路二段71号","tel":"+886-6-2223577","fax":"","lat":22.99436,"long":120.20503,"services":[],"category":["地方小吃"],"consume":["美食"],"update_time":"2022-12-05 15:31:28"},{"id":3696,"lang":"ja","name":"不老荘薬膳ソーセージ","summary":"不老莊藥膳香腸は、1986 年に創立され、健康の理念で薬膳と食品を結び付けることです。\r\n","introduction":"不老莊藥膳香腸は、1986 年に創立され、健康の理念で薬膳と食品を結び付けることです。","open_time":"","district":"中西区","address":"700 台南市中西区南門路53号","tel":"+886-6-2262288","fax":"","lat":22.98996,"long":120.20482,"services":[],"category":["伴手好禮"],"consume":["美食"],"update_time":"2022-12-05 15:33:06"},{"id":3709,"lang":"ja","name":"阿霞飯店","summary":"現在は第三代を引き継いで、発表するのは古い味の料理及び現代の経営方式により、本場の手作り料理は南の豚肝を煎り、鮑と豚の胃袋スープ、塩味の花跳魚を揚げ、貝柱と蟹肉と塩味卵の四宝スープ等の看板料理を含め、三人～五人の仲間及び家族会食に適して、宴会料理を選択するだけでなく、二、三名の友達に分かち合うことも適されています。 \"\r\n","introduction":"現在は第三代を引き継いで、発表するのは古い味の料理及び現代の経営方式により、本場の手作り料理は南の豚肝を煎り、鮑と豚の胃袋スープ、塩味の花跳魚を揚げ、貝柱と蟹肉と塩味卵の四宝スープ等の看板料理を含め、三人～五人の仲間及び家族会食に適して、宴会料理を選択するだけでなく、二、三名の友達に分かち合うことも適されています。 &quot;","open_time":"","district":"中西区","address":"700 台南市中西区忠義路二段84巷7号","tel":"+886-6-2224420","fax":"","lat":22.99412,"long":120.20369,"services":[],"category":["麵食醬料","中式美食"],"consume":["美食"],"update_time":"2022-11-30 12:00:03"},{"id":3710,"lang":"ja","name":"阿美飯店","summary":"阿美飯店では、主に有名な看板料理が鴨土釜です。特色は極めて柔らかい鴨肉であり、歯に挟まない、スープの甘みがあり、鴨の肉のほかに白菜は特色のㄧになっており、鴨土釜の白菜は油を吸い込んでご飯を加えると最高の味になります。\"\r\n","introduction":"阿美飯店では、主に有名な看板料理が鴨土釜です。特色は極めて柔らかい鴨肉であり、歯に挟まない、スープの甘みがあり、鴨の肉のほかに白菜は特色のㄧになっており、鴨土釜の白菜は油を吸い込んでご飯を加えると最高の味になります。&quot;","open_time":"","district":"中西区","address":"700 台南市中西区民權路二段138号","tel":"+886-6-2222848","fax":"+886-6-2264706","lat":22.99478,"long":120.20413,"services":["餐飲"],"category":["地方小吃","麵食醬料","中式美食"],"consume":["美食"],"update_time":"2022-12-05 15:46:43"},{"id":3743,"lang":"ja","name":"莉莉フルーツ店","summary":"営業時間：6:00~11:30 、17:00~20:00(日曜日の夜休み )","introduction":"営業時間：6:00~11:30 、17:00~20:00(日曜日の夜休み )","open_time":"","district":"中西区","address":"700 台南市中西区府前路一段199号","tel":"+886-6-2137522","fax":"","lat":22.98905,"long":120.20409,"services":[],"category":["飲料冰品"],"consume":["美食"],"update_time":"2022-12-05 15:31:55"},{"id":3758,"lang":"ja","name":"義豊冬瓜茶","summary":"\"営業時間：10 ：00 ～ 22 ：00\r\n中華民国元年に創立した、府城に僅かに残った伝統なトウガン飴を作製する老舗であり、トウガン茶は過程を煮込んで、一切の防腐剤及び化学添加物を添加しなくて、それゆえに食感は強い、トウガンの香りを 味わいます。\"","introduction":"&quot;営業時間：10 ：00 ～ 22 ：00 中華民国元年に創立した、府城に僅かに残った伝統なトウガン飴を作製する老舗であり、トウガン茶は過程を煮込んで、一切の防腐剤及び化学添加物を添加しなくて、それゆえに食感は強い、トウガンの香りを 味わいます。&quot;","open_time":"","district":"中西区","address":"700 台南市中西区永福路二段212号","tel":"+886-6-2223711","fax":"","lat":22.99646,"long":120.2024,"services":[],"category":["飲料冰品"],"consume":["美食"],"update_time":"2018-12-13 15:41:57"},{"id":4107,"lang":"ja","name":"窄門コーヒーショップ","summary":"1991 年に創立した桃花源のような狭い玄関があるコーヒー館です。窓外は一望余すところなく見える緑の風景と店内の温かい陳列が最も素晴らしいです。長閑なの片隅は多く人々のいい思い出を作り出されており、ここに来ることは、それなりの価値があります。\"\r\n","introduction":"1991 年に創立した桃花源のような狭い玄関があるコーヒー館です。窓外は一望余すところなく見える緑の風景と店内の温かい陳列が最も素晴らしいです。長閑なの片隅は多く人々のいい思い出を作り出されており、ここに来ることは、それなりの価値があります。&quot;","open_time":"","district":"中西区","address":"700 台南市中西区南門路67号2階","tel":"+886-6-2110508","fax":"","lat":22.98961,"long":120.20476,"services":[],"category":["咖啡茶鋪","飲料冰品"],"consume":["美食"],"update_time":"2022-12-05 15:40:44"},{"id":4119,"lang":"ja","name":"森茂碗粿-開山店","summary":"\"営業時間：09:00~21:00  (碗粿は売り尽くしたとすぐ閉店致します )\r\nお味は独特で、香ばしい Q は口当たりが良く、府城のお客様に嘆賞されています。蘇家は長年によって碗粿を作る経験及び消費者の評判がだんだん周知になり、台南の軽食代表の一つとなっています。 \"\r\n","introduction":"&quot;営業時間：09:00~21:00 (碗粿は売り尽くしたとすぐ閉店致します ) お味は独特で、香ばしい Q は口当たりが良く、府城のお客様に嘆賞されています。蘇家は長年によって碗粿を作る経験及び消費者の評判がだんだん周知になり、台南の軽食代表の一つとなっています。 &quot;","open_time":"","district":"中西区","address":"700 台南市中西区開山路317号","tel":"+886-6-2143389","fax":"","lat":22.98511,"long":120.21107,"services":[],"category":["地方小吃","麵食醬料"],"consume":["美食"],"update_time":"2018-12-13 15:41:57"},{"id":4128,"lang":"ja","name":"福記肉圓","summary":"最高の再来米を選んで浸かった後、軟化してシロップを磨いて、豚肉は特製ソースでしっかりに味を仕込せました。また、挽き肉を香りに満ち溢れさせて、さらに豚肉を増えて、歯答えの味を増します。 \r\n福記のつけソースにも江社長が特別に開発するものです。主に飴、醤油、ケチャップ、豆腐乳などの調子から作るもので、それは普通な醤油ではなく、社長まだ特別に強調して、「福記の肉団子が美味しいと言われるのは、あの肉団子、特製ソースと大きく豚骨を煮込んでいるスープが一緒に取り合わせたからです！」 \"\r\n","introduction":"最高の再来米を選んで浸かった後、軟化してシロップを磨いて、豚肉は特製ソースでしっかりに味を仕込せました。また、挽き肉を香りに満ち溢れさせて、さらに豚肉を増えて、歯答えの味を増します。 福記のつけソースにも江社長が特別に開発するものです。主に飴、醤油、ケチャップ、豆腐乳などの調子から作るもので、それは普通な醤油ではなく、社長まだ特別に強調して、「福記の肉団子が美味しいと言われるのは、あの肉団子、特製ソースと大きく豚骨を煮込んでいるスープが一緒に取り合わせたからです！」 &quot;","open_time":"","district":"中西区","address":"700 台南市中西区府前路一段215号","tel":"+886-6-2158199","fax":"","lat":22.98912,"long":120.20373,"services":[],"category":["地方小吃","麵食醬料","中式美食"],"consume":["美食"],"update_time":"2022-12-05 15:41:19"},{"id":4235,"lang":"ja","name":"老鄧牛肉麺","summary":"真面目で着実の経営で、絶えず牛肉麺の改善と味を研鑽しています。そういうことで、「老鄧牛肉麵」の良い評判を広めて、南台湾の有名な軽食となり、李元簇、張菲等の政治家とテレビ番組のスターは、この香ばしい味美味しい味のうわさを聞いて、本店を訪れたこともあります。\r\n","introduction":"真面目で着実の経営で、絶えず牛肉麺の改善と味を研鑽しています。そういうことで、「老鄧牛肉麵」の良い評判を広めて、南台湾の有名な軽食となり、李元簇、張菲等の政治家とテレビ番組のスターは、この香ばしい味美味しい味のうわさを聞いて、本店を訪れたこともあります。","open_time":"","district":"佳里区","address":"722 台南市佳里区光復路290号","tel":"+886-6-7220467","fax":"","lat":23.16362,"long":120.17494,"services":[],"category":["麵食醬料","中式美食"],"consume":["美食"],"update_time":"2018-12-13 15:41:57"},{"id":4236,"lang":"ja","name":"包仔福佳里の肉りもち","summary":"「佳里肉団子」は、もともと「包仔」と言われています。発明したのは陳金福という人です。佳里の人々は、皆「包仔福」と呼んでいた。台湾が祖国に復帰した後に肉まんとマントウとある程度に区別するために「肉団子」を改称されます。肉団子の具には新鮮な豚肉、干し竹、豆薯、干し海老を加えて、香ばしい の皮を包んで、油で揚げた後、おろしにんにくと台湾パセリなどをかけて、美味で口に合います。評判が広めたことにより、北門区の同郷の人は、どうしても佳里肉団子の特別の味を忘れられないです。 \r\n","introduction":"「佳里肉団子」は、もともと「包仔」と言われています。発明したのは陳金福という人です。佳里の人々は、皆「包仔福」と呼んでいた。台湾が祖国に復帰した後に肉まんとマントウとある程度に区別するために「肉団子」を改称されます。肉団子の具には新鮮な豚肉、干し竹、豆薯、干し海老を加えて、香ばしい の皮を包んで、油で揚げた後、おろしにんにくと台湾パセリなどをかけて、美味で口に合います。評判が広めたことにより、北門区の同郷の人は、どうしても佳里肉団子の特別の味を忘れられないです。","open_time":"","district":"佳里区","address":"722 台南市佳里区延平路215号","tel":"+886-6-7227226","fax":"","lat":23.15919,"long":120.17844,"services":[],"category":["地方小吃","麵食醬料","中式美食"],"consume":["美食"],"update_time":"2022-12-05 15:43:18"},{"id":4237,"lang":"ja","name":"農会辺ラーメン","summary":"50年以上に経営した歴史があって、佳里の同郷の人は、この屋台の長年に亘っての経営した歴史がよく知っているから、伝統のお味、本場スープと台湾風の切仔麺、粿仔スープ及び中華風の煮込み料理、香りが溢れて人々に魅了します。\r\n","introduction":"50年以上に経営した歴史があって、佳里の同郷の人は、この屋台の長年に亘っての経営した歴史がよく知っているから、伝統のお味、本場スープと台湾風の切仔麺、粿仔スープ及び中華風の煮込み料理、香りが溢れて人々に魅了します。","open_time":"","district":"佳里区","address":"722 台南市佳里区民生街8号旁","tel":"+886-6-7227736","fax":"","lat":23.16267,"long":120.17581,"services":[],"category":["麵食醬料","中式美食"],"consume":["美食"],"update_time":"2022-12-05 15:43:21"},{"id":4238,"lang":"ja","name":"佳里興大腸粥","summary":"「創業は中華民国の初期時代でしたので、料理の風味が独特であり、豚の大腸の歯ごたえがあって、軟らかくて食感が良いだけのではなく、それに付け加えた肉ソースによって、さらに本場的味が引き出されています！大腸かゆの米は精選した最高級の在来米であり、大腸と一緒に長時間に亘って、煮込んでおり、それがゆえに大腸の歯ごたえが良く、軟らかくて、口に入れるとすぐ融けて行くように長時間に煮込んだスープも最高です。しっかり、お客様の食欲を掴んでいます。\r\n","introduction":"「創業は中華民国の初期時代でしたので、料理の風味が独特であり、豚の大腸の歯ごたえがあって、軟らかくて食感が良いだけのではなく、それに付け加えた肉ソースによって、さらに本場的味が引き出されています！大腸かゆの米は精選した最高級の在来米であり、大腸と一緒に長時間に亘って、煮込んでおり、それがゆえに大腸の歯ごたえが良く、軟らかくて、口に入れるとすぐ融けて行くように長時間に煮込んだスープも最高です。しっかり、お客様の食欲を掴んでいます。","open_time":"","district":"佳里区","address":"722 台南市佳里区興化里佳里興442号","tel":"+886-6-7261378","fax":"","lat":23.18982,"long":120.18801,"services":[],"category":["中式美食"],"consume":["美食"],"update_time":"2022-12-05 15:43:23"},{"id":4250,"lang":"ja","name":"永通サバヒ粥","summary":"「學甲永通サバー魚（虱目魚）のおかゆ」は、中華民国54年に創立され、新鮮の魚の肉を採用しており、魚のスープは、美味しくて、魚の臭いがありません。サバー魚の団子の歯答えが良くて、そのサバー魚で作ったおかゆは、お客様がみんな、親指を立てて、「素晴らしい！」と賞賛しています！\r\n","introduction":"「學甲永通サバー魚（虱目魚）のおかゆ」は、中華民国54年に創立され、新鮮の魚の肉を採用しており、魚のスープは、美味しくて、魚の臭いがありません。サバー魚の団子の歯答えが良くて、そのサバー魚で作ったおかゆは、お客様がみんな、親指を立てて、「素晴らしい！」と賞賛しています！","open_time":"","district":"学甲区","address":"726 台南市学甲区民权路60号","tel":"+886-6-7839308","fax":"","lat":23.23143,"long":120.18045,"services":[],"category":["地方小吃","中式美食"],"consume":["美食"],"update_time":"2022-12-05 15:43:35"},{"id":4253,"lang":"ja","name":"三寮湾秀碧カキの揚げ物","summary":"三寮湾の東隆宮廟の前に榕樹の下で、たくさんの人が懐かしめている料理の対象は秀碧蚵爹（台湾風のカキ天麩羅）という軽食です。新鮮なカキ、キャベツ、韮と千きりした生姜、及び特製の漢方である香料などを混ぜ合わせて唐揚げ出来た料理です。食べてみると香りや、脆さが甘くて良い味があり、あの味は人々によ特に忘れ難くになりますよ。夏季から兼ねて古い味の氷のデザートを販売しています。\r\n","introduction":"三寮湾の東隆宮廟の前に榕樹の下で、たくさんの人が懐かしめている料理の対象は秀碧蚵爹（台湾風のカキ天麩羅）という軽食です。新鮮なカキ、キャベツ、韮と千きりした生姜、及び特製の漢方である香料などを混ぜ合わせて唐揚げ出来た料理です。食べてみると香りや、脆さが甘くて良い味があり、あの味は人々によ特に忘れ難くになりますよ。夏季から兼ねて古い味の氷のデザートを販売しています。","open_time":"","district":"北門区","address":"727 台南市北門区三光里三寮湾東隆宮廟埕榕樹下","tel":"+886-934-081365","fax":"","lat":23.23874,"long":120.11143,"services":[],"category":["地方小吃","中式美食"],"consume":["美食"],"update_time":"2022-12-05 15:43:40"},{"id":4259,"lang":"ja","name":"華味香鴨肉羹-延平店","summary":"「華味香」鴨肉羹是許多新營孩子記憶中童年的幸福味道。60多年歷史的華味香，其鴨肉羹源於古老秘方，帶骨的全鴨剁塊細細熬煮，鴨肉軟嫩香甜，加上筍絲與調料，清淡爽口不油膩，其魯味更是令人垂涎。","introduction":"「華味香」鴨肉羹是許多新營孩子記憶中童年的幸福味道。60多年歷史的華味香，其鴨肉羹源於古老秘方，帶骨的全鴨剁塊細細熬煮，鴨肉軟嫩香甜，加上筍絲與調料，清淡爽口不油膩，其魯味更是令人垂涎。","open_time":"週一~週日10：00~21：00","district":"新営区","address":"730 台南市新営区延平路29號","tel":"+886-6-6322981","fax":"","lat":23.30174,"long":120.31374,"services":[],"category":["中式美食"],"consume":["美食"],"update_time":"2018-12-13 15:41:57"},{"id":4274,"lang":"ja","name":"白河呉家豆菜麵","summary":"40 数年前から天秤棒を担って、大通りと小路に行ったり来たりして、白河鴨頭を売っていました。今から二代目がこの商売を継ぎます。相変わらずたくさんの来訪者を引き付けます。白河鴨頭は一番重要なのが『卵を産む鴨』の鴨に属されていることです。こうした家鴨を煮込んで、香ばしいさが溢れて、召し上がった後に口に香りを残しています。\r\n","introduction":"40 数年前から天秤棒を担って、大通りと小路に行ったり来たりして、白河鴨頭を売っていました。今から二代目がこの商売を継ぎます。相変わらずたくさんの来訪者を引き付けます。白河鴨頭は一番重要なのが『卵を産む鴨』の鴨に属されていることです。こうした家鴨を煮込んで、香ばしいさが溢れて、召し上がった後に口に香りを残しています。","open_time":"","district":"白河区","address":"732 台南市白河区白河市場29、31号","tel":"+886-6-6858801","fax":"","lat":23.34938,"long":120.41514,"services":[],"category":["麵食醬料","中式美食"],"consume":["美食"],"update_time":"2022-11-30 12:00:08"},{"id":4279,"lang":"ja","name":"湯皇東山バイコー揚げ","summary":"湯皇東山排骨酥 は、伝統の歴史を継ぐ3 代目です。東山肉付き肋骨を揚げ、精選した新鮮の豚肉付き肋骨を選んで、昔の方法で煮こんでいて、明るい黃色の油を用いて、肉付き肋骨肉に掛けた後の肉は甘美です。口の中にすぐ融けており、濃くスープはさっぱりして、この料理の名声は遠くまで広がりしています。\r\n","introduction":"湯皇東山排骨酥 は、伝統の歴史を継ぐ3 代目です。東山肉付き肋骨を揚げ、精選した新鮮の豚肉付き肋骨を選んで、昔の方法で煮こんでいて、明るい黃色の油を用いて、肉付き肋骨肉に掛けた後の肉は甘美です。口の中にすぐ融けており、濃くスープはさっぱりして、この料理の名声は遠くまで広がりしています。","open_time":"","district":"東山区","address":"733 台南市東山区中興路100号","tel":"+886-6-6802859","fax":"","lat":23.32361,"long":120.40351,"services":[],"category":["地方小吃","中式美食"],"consume":["美食"],"update_time":"2022-12-05 15:44:25"},{"id":4283,"lang":"ja","name":"東山肉丸","summary":"東山肉丸では、佳里肉団子と異なっている外観、食材と食感などがあります 。お味の独特でぷんぷんといい匂いがする外観、派答え皮、豊かな内あん、自家特製ソースを加えて、食欲が我慢できない、さらに東山区の人達に愛されています。\r\n","introduction":"東山肉丸では、佳里肉団子と異なっている外観、食材と食感などがあります 。お味の独特でぷんぷんといい匂いがする外観、派答え皮、豊かな内あん、自家特製ソースを加えて、食欲が我慢できない、さらに東山区の人達に愛されています。","open_time":"","district":"東山区","address":"733 台南市東山区中興路91号","tel":"+886-6-6800709","fax":"","lat":23.32401,"long":120.40313,"services":[],"category":["地方小吃","中式美食"],"consume":["美食"],"update_time":"2022-12-05 15:44:30"},{"id":4656,"lang":"ja","name":"阿良碗稞(米の茶碗蒸し)","summary":" 百年に近いの碗粿老舗は、お味が独特であり、柔らかくないて、かつ硬くもので、ちょうどよいの感覚です。食感は非常によいです。ピーナッツ豚足スープがよく煮込んで、独特の味があって、スープは甘くて口に合います。夜明けの 5 時からお客様が絶えず、来ていっらっしゃますので、常に午前 10 時前にもう完売したのです。古い味の西港碗粿を味わってみたいお客様は、早く来てくださいよ。\r\n","introduction":"百年に近いの碗粿老舗は、お味が独特であり、柔らかくないて、かつ硬くもので、ちょうどよいの感覚です。食感は非常によいです。ピーナッツ豚足スープがよく煮込んで、独特の味があって、スープは甘くて口に合います。夜明けの 5 時からお客様が絶えず、来ていっらっしゃますので、常に午前 10 時前にもう完売したのです。古い味の西港碗粿を味わってみたいお客様は、早く来てくださいよ。","open_time":"","district":"西港区","address":"723 台南市西港区中山路326号","tel":"+886-6-7952163","fax":"","lat":23.12148,"long":120.20343,"services":[],"category":["地方小吃"],"consume":["美食"],"update_time":"2022-12-05 15:40:09"},{"id":4856,"lang":"ja","name":"白河潤餅林(台湾式クレープ)","summary":"潤餅は、もともと台湾の清明節（祖先の墓を清掃する日）が前後に食品がその祭祀の日に使われます。白河潤餅は伝統的な製法を堅持し、その潤餅の皮はすごく 歯答えが良くて、しかも薄く弾力性もあります。中身は豊かな餡を詰めこさせています。巻く潤餅はとても美味しくて、一口を味わうのが忘れ難いです。\r\n","introduction":"潤餅は、もともと台湾の清明節（祖先の墓を清掃する日）が前後に食品がその祭祀の日に使われます。白河潤餅は伝統的な製法を堅持し、その潤餅の皮はすごく 歯答えが良くて、しかも薄く弾力性もあります。中身は豊かな餡を詰めこさせています。巻く潤餅はとても美味しくて、一口を味わうのが忘れ難いです。","open_time":"","district":"白河区","address":"732 台南市白河区公有市場4巷36号","tel":"+886-6-6854937","fax":"","lat":23.34751,"long":120.41794,"services":[],"category":["地方小吃"],"consume":["美食"],"update_time":"2018-12-13 15:41:57"}]